{
  "total_entries": 535,
  "per_page": 100,
  "current_page": 1,
  "restaurants": [
    {
      "id": 151612,
      "name": "Perry's Union Street",
      "address": "1944 Union Street",
      "city": "San Francisco",
      "state": "CA",
      "area": "San Francisco Bay Area",
      "postal_code": "94123",
      "country": "US",
      "phone": "4159229022",
      "lat": 37.797904,
      "lng": -122.431332,
      "price": 2,
      "reserve_url": "http://www.opentable.com/single.aspx?rid=151612",
      "mobile_reserve_url": "http://mobile.opentable.com/opentable/?restId=151612",
      "image_url": "https://www.opentable.com/img/restimages/151612.jpg"
    },
    {
      "id": 141049,
      "name": "Trou Normand",
      "address": "140 New Montgomery Street",
      "city": "San Francisco",
      "state": "CA",
      "area": "San Francisco Bay Area",
      "postal_code": "94103",
      "country": "US",
      "phone": "4159750876",
      "lat": 37.786664,
      "lng": -122.399773,
      "price": 2,
      "reserve_url": "http://www.opentable.com/single.aspx?rid=141049",
      "mobile_reserve_url": "http://mobile.opentable.com/opentable/?restId=141049",
      "image_url": "https://www.opentable.com/img/restimages/141049.jpg"
    },
    {
      "id": 22792,
      "name": "Fishermen's Grotto #9",
      "address": "2847 Taylor Street",
      "city": "San Francisco",
      "state": "CA",
      "area": "San Francisco Bay Area",
      "postal_code": "94133",
      "country": "US",
      "phone": "4156737025",
      "lat": 37.808407,
      "lng": -122.415845,
      "price": 2,
      "reserve_url": "http://www.opentable.com/single.aspx?rid=22792",
      "mobile_reserve_url": "http://mobile.opentable.com/opentable/?restId=22792",
      "image_url": "https://www.opentable.com/img/restimages/22792.jpg"
    },
    {
      "id": 50962,
      "name": "Sons \u0026 Daughters",
      "address": "708 Bush Street",
      "city": "San Francisco",
      "state": "CA",
      "area": "San Francisco Bay Area",
      "postal_code": "94108",
      "country": "US",
      "phone": "4153918311",
      "lat": 37.790138,
      "lng": -122.40908,
      "price": 4,
      "reserve_url": "http://www.opentable.com/single.aspx?rid=50962",
      "mobile_reserve_url": "http://mobile.opentable.com/opentable/?restId=50962",
      "image_url": "https://www.opentable.com/img/restimages/50962.jpg"
    },
    {
      "id": 4121,
      "name": "Ristobar",
      "address": "2300 Chestnut St",
      "city": "San Francisco",
      "state": "CA",
      "area": "San Francisco Bay Area",
      "postal_code": "94123",
      "country": "US",
      "phone": "4159236464x",
      "lat": 37.80035,
      "lng": -122.441486,
      "price": 2,
      "reserve_url": "http://www.opentable.com/single.aspx?rid=4121",
      "mobile_reserve_url": "http://mobile.opentable.com/opentable/?restId=4121",
      "image_url": "https://www.opentable.com/img/restimages/4121.jpg"
    },
    {
      "id": 6001,
      "name": "Mamacita",
      "address": "2317 Chestnut St",
      "city": "San Francisco",
      "state": "CA",
      "area": "San Francisco Bay Area",
      "postal_code": "94123",
      "country": "US",
      "phone": "4153468494",
      "lat": 37.799953,
      "lng": -122.44147,
      "price": 2,
      "reserve_url": "http://www.opentable.com/single.aspx?rid=6001",
      "mobile_reserve_url": "http://mobile.opentable.com/opentable/?restId=6001",
      "image_url": "https://www.opentable.com/img/restimages/6001.jpg"
    },
    {
      "id": 149539,
      "name": "KUSAKABE",
      "address": "584 Washington Street",
      "city": "San Francisco",
      "state": "CA",
      "area": "San Francisco Bay Area",
      "postal_code": "94111",
      "country": "US",
      "phone": "4157570155",
      "lat": 37.795597,
      "lng": -122.402963,
      "price": 4,
      "reserve_url": "http://www.opentable.com/single.aspx?rid=149539",
      "mobile_reserve_url": "http://mobile.opentable.com/opentable/?restId=149539",
      "image_url": "https://www.opentable.com/img/restimages/149539.jpg"
    },
    {
      "id": 7742,
      "name": "The Oak Room - The Westin St. Francis",
      "address": "335 Powell St",
      "city": "San Francisco",
      "state": "CA",
      "area": "San Francisco Bay Area",
      "postal_code": "94102",
      "country": "US",
      "phone": "4157740264",
      "lat": 37.787978,
      "lng": -122.408365,
      "price": 2,
      "reserve_url": "http://www.opentable.com/single.aspx?rid=7742",
      "mobile_reserve_url": "http://mobile.opentable.com/opentable/?restId=7742",
      "image_url": "https://www.opentable.com/img/restimages/7742.jpg"
    },
    {
      "id": 22126,
      "name": "BIN 38",
      "address": "3232 Scott Street",
      "city": "San Francisco",
      "state": "CA",
      "area": "San Francisco Bay Area",
      "postal_code": "94123",
      "country": "US",
      "phone": "4155673838x",
      "lat": 37.799744,
      "lng": -122.441095,
      "price": 2,
      "reserve_url": "http://www.opentable.com/single.aspx?rid=22126",
      "mobile_reserve_url": "http://mobile.opentable.com/opentable/?restId=22126",
      "image_url": "https://www.opentable.com/img/restimages/22126.jpg"
    },
    {
      "id": 45916,
      "name": "Benu",
      "address": "22 Hawthorne Street",
      "city": "San Francisco",
      "state": "CA",
      "area": "San Francisco Bay Area",
      "postal_code": "94105",
      "country": "US",
      "phone": "4156854860x",
      "lat": 37.785402,
      "lng": -122.399068,
      "price": 4,
      "reserve_url": "http://www.opentable.com/single.aspx?rid=45916",
      "mobile_reserve_url": "http://mobile.opentable.com/opentable/?restId=45916",
      "image_url": "https://www.opentable.com/img/restimages/45916.jpg"
    },
    {
      "id": 7405,
      "name": "Lark Creek Steak",
      "address": "845 Market Street - 4th Floor",
      "city": "San Francisco",
      "state": "CA",
      "area": "San Francisco Bay Area",
      "postal_code": "94103",
      "country": "US",
      "phone": "4155934100x",
      "lat": 37.784909,
      "lng": -122.406922,
      "price": 3,
      "reserve_url": "http://www.opentable.com/single.aspx?rid=7405",
      "mobile_reserve_url": "http://mobile.opentable.com/opentable/?restId=7405",
      "image_url": "https://www.opentable.com/img/restimages/7405.jpg"
    },
    {
      "id": 7644,
      "name": "Le Zinc",
      "address": "4063 24th Street",
      "city": "San Francisco",
      "state": "CA",
      "area": "San Francisco Bay Area",
      "postal_code": "94114",
      "country": "US",
      "phone": "4156479400x",
      "lat": 37.7511,
      "lng": -122.433235,
      "price": 2,
      "reserve_url": "http://www.opentable.com/single.aspx?rid=7644",
      "mobile_reserve_url": "http://mobile.opentable.com/opentable/?restId=7644",
      "image_url": "https://www.opentable.com/img/restimages/7644.jpg"
    },
    {
      "id": 114487,
      "name": "Maruya",
      "address": "2931 16th Street",
      "city": "San Francisco",
      "state": "CA",
      "area": "San Francisco Bay Area",
      "postal_code": "94103",
      "country": "US",
      "phone": "4155030702x",
      "lat": 37.764932,
      "lng": -122.418318,
      "price": 4,
      "reserve_url": "http://www.opentable.com/single.aspx?rid=114487",
      "mobile_reserve_url": "http://mobile.opentable.com/opentable/?restId=114487",
      "image_url": "https://www.opentable.com/img/restimages/114487.jpg"
    },
    {
      "id": 37849,
      "name": "Jai Yun",
      "address": "680 Clay Street",
      "city": "San Francisco",
      "state": "CA",
      "area": "San Francisco Bay Area",
      "postal_code": "94111",
      "country": "US",
      "phone": "4159817438",
      "lat": 37.794505,
      "lng": -122.404505,
      "price": 4,
      "reserve_url": "http://www.opentable.com/single.aspx?rid=37849",
      "mobile_reserve_url": "http://mobile.opentable.com/opentable/?restId=37849",
      "image_url": "https://www.opentable.com/img/restimages/37849.jpg"
    },
    {
      "id": 144724,
      "name": "TBD Restaurant",
      "address": "1077 Mission Street",
      "city": "San Francisco",
      "state": "CA",
      "area": "San Francisco Bay Area",
      "postal_code": "94103",
      "country": "US",
      "phone": "4154311826x",
      "lat": 37.779569,
      "lng": -122.410182,
      "price": 3,
      "reserve_url": "http://www.opentable.com/single.aspx?rid=144724",
      "mobile_reserve_url": "http://mobile.opentable.com/opentable/?restId=144724",
      "image_url": "https://www.opentable.com/img/restimages/144724.jpg"
    },
    {
      "id": 282,
      "name": "Ideale",
      "address": "1309 Grant Avenue",
      "city": "San Francisco",
      "state": "CA",
      "area": "San Francisco Bay Area",
      "postal_code": "94109",
      "country": "US",
      "phone": "4153914129x",
      "lat": 37.798969,
      "lng": -122.407312,
      "price": 2,
      "reserve_url": "http://www.opentable.com/single.aspx?rid=282",
      "mobile_reserve_url": "http://mobile.opentable.com/opentable/?restId=282",
      "image_url": "https://www.opentable.com/img/restimages/282.jpg"
    },
    {
      "id": 23521,
      "name": "Blue Plate",
      "address": "3218 Mission Street",
      "city": "San Francisco",
      "state": "CA",
      "area": "San Francisco Bay Area",
      "postal_code": "94110",
      "country": "US",
      "phone": "4152826777x",
      "lat": 37.745275,
      "lng": -122.420435,
      "price": 3,
      "reserve_url": "http://www.opentable.com/single.aspx?rid=23521",
      "mobile_reserve_url": "http://mobile.opentable.com/opentable/?restId=23521",
      "image_url": "https://www.opentable.com/img/restimages/23521.jpg"
    },
    {
      "id": 117388,
      "name": "TamashiSoul Sushi Bar",
      "address": "1849 Union Street",
      "city": "San Francisco",
      "state": "CA",
      "area": "San Francisco Bay Area",
      "postal_code": "94123",
      "country": "US",
      "phone": "415-346-1849x",
      "lat": 37.79781,
      "lng": -122.429741,
      "price": 3,
      "reserve_url": "http://www.opentable.com/single.aspx?rid=117388",
      "mobile_reserve_url": "http://mobile.opentable.com/opentable/?restId=117388",
      "image_url": "https://www.opentable.com/img/restimages/117388.jpg"
    },
    {
      "id": 111319,
      "name": "Craw Station",
      "address": "1336 9th Avenue",
      "city": "San Francisco",
      "state": "CA",
      "area": "San Francisco Bay Area",
      "postal_code": "94122",
      "country": "US",
      "phone": "4156829980x",
      "lat": 37.76335,
      "lng": -122.466157,
      "price": 2,
      "reserve_url": "http://www.opentable.com/single.aspx?rid=111319",
      "mobile_reserve_url": "http://mobile.opentable.com/opentable/?restId=111319",
      "image_url": "https://www.opentable.com/img/restimages/111319.jpg"
    },
    {
      "id": 105217,
      "name": "South at SF Jazz",
      "address": "201 Franklin Street",
      "city": "San Francisco",
      "state": "CA",
      "area": "San Francisco Bay Area",
      "postal_code": "94102",
      "country": "US",
      "phone": "4155393905x",
      "lat": 37.776166,
      "lng": -122.421185,
      "price": 2,
      "reserve_url": "http://www.opentable.com/single.aspx?rid=105217",
      "mobile_reserve_url": "http://mobile.opentable.com/opentable/?restId=105217",
      "image_url": "https://www.opentable.com/img/restimages/105217.jpg"
    },
    {
      "id": 114490,
      "name": "Stones Throw",
      "address": "1896 Hyde Street",
      "city": "San Francisco",
      "state": "CA",
      "area": "San Francisco Bay Area",
      "postal_code": "94109",
      "country": "US",
      "phone": "4157962901x",
      "lat": 37.798117,
      "lng": -122.41873,
      "price": 3,
      "reserve_url": "http://www.opentable.com/single.aspx?rid=114490",
      "mobile_reserve_url": "http://mobile.opentable.com/opentable/?restId=114490",
      "image_url": "https://www.opentable.com/img/restimages/114490.jpg"
    },
    {
      "id": 117262,
      "name": "Ichi Sushi \u0026 Ni Bar",
      "address": "3282 Mission Street",
      "city": "San Francisco",
      "state": "CA",
      "area": "San Francisco Bay Area",
      "postal_code": "94110",
      "country": "US",
      "phone": "4155254750",
      "lat": 37.742681,
      "lng": -122.421542,
      "price": 3,
      "reserve_url": "http://www.opentable.com/single.aspx?rid=117262",
      "mobile_reserve_url": "http://mobile.opentable.com/opentable/?restId=117262",
      "image_url": "https://www.opentable.com/img/restimages/117262.jpg"
    },
    {
      "id": 2542,
      "name": "Absinthe Brasserie and Bar",
      "address": "398 Hayes Street",
      "city": "San Francisco",
      "state": "CA",
      "area": "San Francisco Bay Area",
      "postal_code": "94102",
      "country": "US",
      "phone": "4155511590x",
      "lat": 37.776917,
      "lng": -122.42298,
      "price": 2,
      "reserve_url": "http://www.opentable.com/single.aspx?rid=2542",
      "mobile_reserve_url": "http://mobile.opentable.com/opentable/?restId=2542",
      "image_url": "https://www.opentable.com/img/restimages/2542.jpg"
    },
    {
      "id": 15403,
      "name": "Le Central",
      "address": "453 Bush St.",
      "city": "San Francisco",
      "state": "CA",
      "area": "San Francisco Bay Area",
      "postal_code": "94108",
      "country": "US",
      "phone": "4153912233",
      "lat": 37.790452,
      "lng": -122.405025,
      "price": 2,
      "reserve_url": "http://www.opentable.com/single.aspx?rid=15403",
      "mobile_reserve_url": "http://mobile.opentable.com/opentable/?restId=15403",
      "image_url": "https://www.opentable.com/img/restimages/15403.jpg"
    },
    {
      "id": 13591,
      "name": "Spruce",
      "address": "3640 Sacramento St",
      "city": "San Francisco",
      "state": "CA",
      "area": "San Francisco Bay Area",
      "postal_code": "94118",
      "country": "US",
      "phone": "4159315100x",
      "lat": 37.787725,
      "lng": -122.452758,
      "price": 3,
      "reserve_url": "http://www.opentable.com/single.aspx?rid=13591",
      "mobile_reserve_url": "http://mobile.opentable.com/opentable/?restId=13591",
      "image_url": "https://www.opentable.com/img/restimages/13591.jpg"
    },
    {
      "id": 27691,
      "name": "TropisueÃ±o",
      "address": "75 Yerba Buena Lane",
      "city": "San Francisco",
      "state": "CA",
      "area": "San Francisco Bay Area",
      "postal_code": "94103",
      "country": "US",
      "phone": "4152430299x",
      "lat": 37.78547,
      "lng": -122.40397,
      "price": 2,
      "reserve_url": "http://www.opentable.com/single.aspx?rid=27691",
      "mobile_reserve_url": "http://mobile.opentable.com/opentable/?restId=27691",
      "image_url": "https://www.opentable.com/img/restimages/27691.jpg"
    },
    {
      "id": 5188,
      "name": "Garcon",
      "address": "1101 Valencia Street",
      "city": "San Francisco",
      "state": "CA",
      "area": "San Francisco Bay Area",
      "postal_code": "94110",
      "country": "US",
      "phone": "4154018959",
      "lat": 37.755294,
      "lng": -122.420972,
      "price": 2,
      "reserve_url": "http://www.opentable.com/single.aspx?rid=5188",
      "mobile_reserve_url": "http://mobile.opentable.com/opentable/?restId=5188",
      "image_url": "https://www.opentable.com/img/restimages/5188.jpg"
    },
    {
      "id": 4961,
      "name": "Isa",
      "address": "3324 Steiner St.",
      "city": "San Francisco",
      "state": "CA",
      "area": "San Francisco Bay Area",
      "postal_code": "94123",
      "country": "US",
      "phone": "4155679588x",
      "lat": 37.800092,
      "lng": -122.437794,
      "price": 3,
      "reserve_url": "http://www.opentable.com/single.aspx?rid=4961",
      "mobile_reserve_url": "http://mobile.opentable.com/opentable/?restId=4961",
      "image_url": "https://www.opentable.com/img/restimages/4961.jpg"
    },
    {
      "id": 130,
      "name": "Boulevard",
      "address": "1 Mission St.",
      "city": "San Francisco",
      "state": "CA",
      "area": "San Francisco Bay Area",
      "postal_code": "94105",
      "country": "US",
      "phone": "4155436084",
      "lat": 37.79332,
      "lng": -122.392761,
      "price": 3,
      "reserve_url": "http://www.opentable.com/single.aspx?rid=130",
      "mobile_reserve_url": "http://mobile.opentable.com/opentable/?restId=130",
      "image_url": "https://www.opentable.com/img/restimages/130.jpg"
    },
    {
      "id": 6366,
      "name": "North Beach Restaurant",
      "address": "1512 Stockton St",
      "city": "San Francisco",
      "state": "CA",
      "area": "San Francisco Bay Area",
      "postal_code": "94133",
      "country": "US",
      "phone": "4153921700",
      "lat": 37.799793,
      "lng": -122.409061,
      "price": 3,
      "reserve_url": "http://www.opentable.com/single.aspx?rid=6366",
      "mobile_reserve_url": "http://mobile.opentable.com/opentable/?restId=6366",
      "image_url": "https://www.opentable.com/img/restimages/6366.jpg"
    },
    {
      "id": 102289,
      "name": "Outerlands",
      "address": "4001 Judah St.",
      "city": "San Francisco",
      "state": "CA",
      "area": "San Francisco Bay Area",
      "postal_code": "94122",
      "country": "US",
      "phone": "4156616140x",
      "lat": 37.760352,
      "lng": -122.504995,
      "price": 3,
      "reserve_url": "http://www.opentable.com/single.aspx?rid=102289",
      "mobile_reserve_url": "http://mobile.opentable.com/opentable/?restId=102289",
      "image_url": "https://www.opentable.com/img/restimages/102289.jpg"
    },
    {
      "id": 115873,
      "name": "Il Borgo",
      "address": "500 Fell Street",
      "city": "San Francisco",
      "state": "CA",
      "area": "San Francisco Bay Area",
      "postal_code": "94102",
      "country": "US",
      "phone": "4152559108",
      "lat": 37.775689,
      "lng": -122.426282,
      "price": 2,
      "reserve_url": "http://www.opentable.com/single.aspx?rid=115873",
      "mobile_reserve_url": "http://mobile.opentable.com/opentable/?restId=115873",
      "image_url": "https://www.opentable.com/img/restimages/115873.jpg"
    },
    {
      "id": 78865,
      "name": "NEPTUNE's Waterfront Grill \u0026 Bar",
      "address": "PIER 39",
      "city": "San Francisco",
      "state": "CA",
      "area": "San Francisco Bay Area",
      "postal_code": "94119",
      "country": "US",
      "phone": "4154342260x",
      "lat": 37.810879,
      "lng": -122.410604,
      "price": 3,
      "reserve_url": "http://www.opentable.com/single.aspx?rid=78865",
      "mobile_reserve_url": "http://mobile.opentable.com/opentable/?restId=78865",
      "image_url": "https://www.opentable.com/img/restimages/78865.jpg"
    },
    {
      "id": 44986,
      "name": "Woodwards Garden",
      "address": "1700 Mission Street",
      "city": "San Francisco",
      "state": "CA",
      "area": "San Francisco Bay Area",
      "postal_code": "94103",
      "country": "US",
      "phone": "4156217122",
      "lat": 37.769834,
      "lng": -122.420393,
      "price": 3,
      "reserve_url": "http://www.opentable.com/single.aspx?rid=44986",
      "mobile_reserve_url": "http://mobile.opentable.com/opentable/?restId=44986",
      "image_url": "https://www.opentable.com/img/restimages/44986.jpg"
    },
    {
      "id": 107848,
      "name": "Ala Romana",
      "address": "1098 Jackson Street",
      "city": "San Francisco",
      "state": "CA",
      "area": "San Francisco Bay Area",
      "postal_code": "94133",
      "country": "US",
      "phone": "4152923699x",
      "lat": 37.795322,
      "lng": -122.41307,
      "price": 2,
      "reserve_url": "http://www.opentable.com/single.aspx?rid=107848",
      "mobile_reserve_url": "http://mobile.opentable.com/opentable/?restId=107848",
      "image_url": "https://www.opentable.com/img/restimages/107848.jpg"
    },
    {
      "id": 49,
      "name": "Le Charm",
      "address": "315 Fifth St.",
      "city": "San Francisco",
      "state": "CA",
      "area": "San Francisco Bay Area",
      "postal_code": "94107",
      "country": "US",
      "phone": "4155466128",
      "lat": 37.779967,
      "lng": -122.403014,
      "price": 3,
      "reserve_url": "http://www.opentable.com/single.aspx?rid=49",
      "mobile_reserve_url": "http://mobile.opentable.com/opentable/?restId=49",
      "image_url": "https://www.opentable.com/img/restimages/49.jpg"
    },
    {
      "id": 16609,
      "name": "1300 on Fillmore",
      "address": "1300 Fillmore Street",
      "city": "San Francisco",
      "state": "CA",
      "area": "San Francisco Bay Area",
      "postal_code": "94115",
      "country": "US",
      "phone": "4157717100x",
      "lat": 37.781596,
      "lng": -122.432067,
      "price": 3,
      "reserve_url": "http://www.opentable.com/single.aspx?rid=16609",
      "mobile_reserve_url": "http://mobile.opentable.com/opentable/?restId=16609",
      "image_url": "https://www.opentable.com/img/restimages/16609.jpg"
    },
    {
      "id": 97309,
      "name": "Rich Table",
      "address": "199 Gough Street",
      "city": "San Francisco",
      "state": "CA",
      "area": "San Francisco Bay Area",
      "postal_code": "94118",
      "country": "US",
      "phone": "4153559085x",
      "lat": 37.774886,
      "lng": -122.422707,
      "price": 3,
      "reserve_url": "http://www.opentable.com/single.aspx?rid=97309",
      "mobile_reserve_url": "http://mobile.opentable.com/opentable/?restId=97309",
      "image_url": "https://www.opentable.com/img/restimages/97309.jpg"
    },
    {
      "id": 36082,
      "name": "Jeanne D'Arc - Cornell Hotel De France",
      "address": "715 Bush Street",
      "city": "San Francisco",
      "state": "CA",
      "area": "San Francisco Bay Area",
      "postal_code": "94108",
      "country": "US",
      "phone": "4154213154",
      "lat": 37.790097,
      "lng": -122.409127,
      "price": 3,
      "reserve_url": "http://www.opentable.com/single.aspx?rid=36082",
      "mobile_reserve_url": "http://mobile.opentable.com/opentable/?restId=36082",
      "image_url": "https://www.opentable.com/img/restimages/36082.jpg"
    },
    {
      "id": 17035,
      "name": "Waterbar",
      "address": "399 The Embarcadero South",
      "city": "San Francisco",
      "state": "CA",
      "area": "San Francisco Bay Area",
      "postal_code": "94105",
      "country": "US",
      "phone": "4152849922",
      "lat": 37.790441,
      "lng": -122.388983,
      "price": 3,
      "reserve_url": "http://www.opentable.com/single.aspx?rid=17035",
      "mobile_reserve_url": "http://mobile.opentable.com/opentable/?restId=17035",
      "image_url": "https://www.opentable.com/img/restimages/17035.jpg"
    },
    {
      "id": 115978,
      "name": "Mazza Luna",
      "address": "810 Van Ness Ave.",
      "city": "San Francisco",
      "state": "CA",
      "area": "San Francisco Bay Area",
      "postal_code": "94109",
      "country": "US",
      "phone": "4158292730",
      "lat": 37.783242,
      "lng": -122.420478,
      "price": 2,
      "reserve_url": "http://www.opentable.com/single.aspx?rid=115978",
      "mobile_reserve_url": "http://mobile.opentable.com/opentable/?restId=115978",
      "image_url": "https://www.opentable.com/img/restimages/115978.jpg"
    },
    {
      "id": 109762,
      "name": "Cafe Zoetrope",
      "address": "916 Kearny Street",
      "city": "San Francisco",
      "state": "CA",
      "area": "San Francisco Bay Area",
      "postal_code": "94133",
      "country": "US",
      "phone": "4152911700",
      "lat": 37.796684,
      "lng": -122.405282,
      "price": 2,
      "reserve_url": "http://www.opentable.com/single.aspx?rid=109762",
      "mobile_reserve_url": "http://mobile.opentable.com/opentable/?restId=109762",
      "image_url": "https://www.opentable.com/img/restimages/109762.jpg"
    },
    {
      "id": 28432,
      "name": "Infusion Lounge",
      "address": "124 Ellis Street",
      "city": "San Francisco",
      "state": "CA",
      "area": "San Francisco Bay Area",
      "postal_code": "94102",
      "country": "US",
      "phone": "4154218700",
      "lat": 37.785486,
      "lng": -122.408196,
      "price": 2,
      "reserve_url": "http://www.opentable.com/single.aspx?rid=28432",
      "mobile_reserve_url": "http://mobile.opentable.com/opentable/?restId=28432",
      "image_url": "https://www.opentable.com/img/restimages/28432.jpg"
    },
    {
      "id": 112807,
      "name": "mrCrave / bistro + cafe",
      "address": "655 Ellis Street",
      "city": "San Francisco",
      "state": "CA",
      "area": "San Francisco Bay Area",
      "postal_code": "94109",
      "country": "US",
      "phone": "4153218899x",
      "lat": 37.784045,
      "lng": -122.416799,
      "price": 2,
      "reserve_url": "http://www.opentable.com/single.aspx?rid=112807",
      "mobile_reserve_url": "http://mobile.opentable.com/opentable/?restId=112807",
      "image_url": "https://www.opentable.com/img/restimages/112807.jpg"
    },
    {
      "id": 31408,
      "name": "cityhouse Restaurant - Parc 55 Hotel",
      "address": "55 Cyril Magnin Street",
      "city": "San Francisco",
      "state": "CA",
      "area": "San Francisco Bay Area",
      "postal_code": "94102",
      "country": "US",
      "phone": "4154036601x",
      "lat": 37.784871,
      "lng": -122.408991,
      "price": 3,
      "reserve_url": "http://www.opentable.com/single.aspx?rid=31408",
      "mobile_reserve_url": "http://mobile.opentable.com/opentable/?restId=31408",
      "image_url": "https://www.opentable.com/img/restimages/31408.jpg"
    },
    {
      "id": 74941,
      "name": "Cajun Pacific",
      "address": "4542 Irving St",
      "city": "San Francisco",
      "state": "CA",
      "area": "San Francisco Bay Area",
      "postal_code": "94122",
      "country": "US",
      "phone": "4155046652",
      "lat": 37.762389,
      "lng": -122.506833,
      "price": 2,
      "reserve_url": "http://www.opentable.com/single.aspx?rid=74941",
      "mobile_reserve_url": "http://mobile.opentable.com/opentable/?restId=74941",
      "image_url": "https://www.opentable.com/img/restimages/74941.jpg"
    },
    {
      "id": 100033,
      "name": "Piccino",
      "address": "1001 Minnesota Street",
      "city": "San Francisco",
      "state": "CA",
      "area": "San Francisco Bay Area",
      "postal_code": "94107",
      "country": "US",
      "phone": "4158244224x10",
      "lat": 37.757665,
      "lng": -122.39003,
      "price": 2,
      "reserve_url": "http://www.opentable.com/single.aspx?rid=100033",
      "mobile_reserve_url": "http://mobile.opentable.com/opentable/?restId=100033",
      "image_url": "https://www.opentable.com/img/restimages/100033.jpg"
    },
    {
      "id": 4096,
      "name": "Bistro Boudin",
      "address": "160 Jefferson St, Upper Level",
      "city": "San Francisco",
      "state": "CA",
      "area": "San Francisco Bay Area",
      "postal_code": "94133",
      "country": "US",
      "phone": "4159281849x2",
      "lat": 37.808343,
      "lng": -122.415097,
      "price": 2,
      "reserve_url": "http://www.opentable.com/single.aspx?rid=4096",
      "mobile_reserve_url": "http://mobile.opentable.com/opentable/?restId=4096",
      "image_url": "https://www.opentable.com/img/restimages/4096.jpg"
    },
    {
      "id": 7547,
      "name": "New Delhi Restaurant",
      "address": "160 Ellis Street",
      "city": "San Francisco",
      "state": "CA",
      "area": "San Francisco Bay Area",
      "postal_code": "94102",
      "country": "US",
      "phone": "4153978470",
      "lat": 37.785399,
      "lng": -122.4089,
      "price": 2,
      "reserve_url": "http://www.opentable.com/single.aspx?rid=7547",
      "mobile_reserve_url": "http://mobile.opentable.com/opentable/?restId=7547",
      "image_url": "https://www.opentable.com/img/restimages/7547.jpg"
    },
    {
      "id": 64774,
      "name": "Boxing Room",
      "address": "399 Grove Street",
      "city": "San Francisco",
      "state": "CA",
      "area": "San Francisco Bay Area",
      "postal_code": "94102",
      "country": "US",
      "phone": "4154306590x",
      "lat": 37.777772,
      "lng": -122.423069,
      "price": 2,
      "reserve_url": "http://www.opentable.com/single.aspx?rid=64774",
      "mobile_reserve_url": "http://mobile.opentable.com/opentable/?restId=64774",
      "image_url": "https://www.opentable.com/img/restimages/64774.jpg"
    },
    {
      "id": 103366,
      "name": "Tal-Y-Tara Tea \u0026 Polo Shoppe",
      "address": "6439 California Street",
      "city": "San Francisco",
      "state": "CA",
      "area": "San Francisco Bay Area",
      "postal_code": "94121",
      "country": "US",
      "phone": "4157519275",
      "lat": 37.783675,
      "lng": -122.486778,
      "price": 2,
      "reserve_url": "http://www.opentable.com/single.aspx?rid=103366",
      "mobile_reserve_url": "http://mobile.opentable.com/opentable/?restId=103366",
      "image_url": "https://www.opentable.com/img/restimages/103366.jpg"
    },
    {
      "id": 66832,
      "name": "Aslam's Rasoi",
      "address": "1037 Valencia St",
      "city": "San Francisco",
      "state": "CA",
      "area": "San Francisco Bay Area",
      "postal_code": "94110",
      "country": "US",
      "phone": "4156950599",
      "lat": 37.756342,
      "lng": -122.420926,
      "price": 2,
      "reserve_url": "http://www.opentable.com/single.aspx?rid=66832",
      "mobile_reserve_url": "http://mobile.opentable.com/opentable/?restId=66832",
      "image_url": "https://www.opentable.com/img/restimages/66832.jpg"
    },
    {
      "id": 52201,
      "name": "Fondue Cowboy",
      "address": "1052 Folsom Street",
      "city": "San Francisco",
      "state": "CA",
      "area": "San Francisco Bay Area",
      "postal_code": "94103",
      "country": "US",
      "phone": "4154315100",
      "lat": 37.777522,
      "lng": -122.406893,
      "price": 2,
      "reserve_url": "http://www.opentable.com/single.aspx?rid=52201",
      "mobile_reserve_url": "http://mobile.opentable.com/opentable/?restId=52201",
      "image_url": "https://www.opentable.com/img/restimages/52201.jpg"
    },
    {
      "id": 43075,
      "name": "Maykadeh",
      "address": "470 Green Street",
      "city": "San Francisco",
      "state": "CA",
      "area": "San Francisco Bay Area",
      "postal_code": "94133",
      "country": "US",
      "phone": "4153628286",
      "lat": 37.799753,
      "lng": -122.407123,
      "price": 2,
      "reserve_url": "http://www.opentable.com/single.aspx?rid=43075",
      "mobile_reserve_url": "http://mobile.opentable.com/opentable/?restId=43075",
      "image_url": "https://www.opentable.com/img/restimages/43075.jpg"
    },
    {
      "id": 91507,
      "name": "Claudine",
      "address": "8 Claude Lane",
      "city": "San Francisco",
      "state": "CA",
      "area": "San Francisco Bay Area",
      "postal_code": "94108",
      "country": "US",
      "phone": "4157622677x",
      "lat": 37.789858,
      "lng": -122.404223,
      "price": 2,
      "reserve_url": "http://www.opentable.com/single.aspx?rid=91507",
      "mobile_reserve_url": "http://mobile.opentable.com/opentable/?restId=91507",
      "image_url": "https://www.opentable.com/img/restimages/91507.jpg"
    },
    {
      "id": 15823,
      "name": "Vicoletto",
      "address": "550 Green Street",
      "city": "San Francisco",
      "state": "CA",
      "area": "San Francisco Bay Area",
      "postal_code": "94133",
      "country": "US",
      "phone": "4154335800",
      "lat": 37.799797,
      "lng": -122.408349,
      "price": 2,
      "reserve_url": "http://www.opentable.com/single.aspx?rid=15823",
      "mobile_reserve_url": "http://mobile.opentable.com/opentable/?restId=15823",
      "image_url": "https://www.opentable.com/img/restimages/15823.jpg"
    },
    {
      "id": 3034,
      "name": "Beach Chalet Brewery \u0026 Restaurant",
      "address": "1000 Great Hwy.",
      "city": "San Francisco",
      "state": "CA",
      "area": "San Francisco Bay Area",
      "postal_code": "94121",
      "country": "US",
      "phone": "4153868439",
      "lat": 37.768963,
      "lng": -122.510655,
      "price": 2,
      "reserve_url": "http://www.opentable.com/single.aspx?rid=3034",
      "mobile_reserve_url": "http://mobile.opentable.com/opentable/?restId=3034",
      "image_url": "https://www.opentable.com/img/restimages/3034.jpg"
    },
    {
      "id": 117271,
      "name": "Urban Putt",
      "address": "1096 South Van Ness Avenue",
      "city": "San Francisco",
      "state": "CA",
      "area": "San Francisco Bay Area",
      "postal_code": "94110",
      "country": "US",
      "phone": "4153411080x",
      "lat": 37.755706,
      "lng": -122.416879,
      "price": 2,
      "reserve_url": "http://www.opentable.com/single.aspx?rid=117271",
      "mobile_reserve_url": "http://mobile.opentable.com/opentable/?restId=117271",
      "image_url": "https://www.opentable.com/img/restimages/117271.jpg"
    },
    {
      "id": 3592,
      "name": "Cafe Claude - Downtown",
      "address": "7 Claude Lane",
      "city": "San Francisco",
      "state": "CA",
      "area": "San Francisco Bay Area",
      "postal_code": "94108",
      "country": "US",
      "phone": "4153923505x",
      "lat": 37.789853,
      "lng": -122.404224,
      "price": 2,
      "reserve_url": "http://www.opentable.com/single.aspx?rid=3592",
      "mobile_reserve_url": "http://mobile.opentable.com/opentable/?restId=3592",
      "image_url": "https://www.opentable.com/img/restimages/3592.jpg"
    },
    {
      "id": 51181,
      "name": "Skool",
      "address": "1725 Alameda Street",
      "city": "San Francisco",
      "state": "CA",
      "area": "San Francisco Bay Area",
      "postal_code": "94103",
      "country": "US",
      "phone": "4152558800",
      "lat": 37.768677,
      "lng": -122.402264,
      "price": 2,
      "reserve_url": "http://www.opentable.com/single.aspx?rid=51181",
      "mobile_reserve_url": "http://mobile.opentable.com/opentable/?restId=51181",
      "image_url": "https://www.opentable.com/img/restimages/51181.jpg"
    },
    {
      "id": 152689,
      "name": "La Nebbia Restaurant",
      "address": "1781 Church Street",
      "city": "San Francisco",
      "state": "CA",
      "area": "San Francisco Bay Area",
      "postal_code": "94131",
      "country": "US",
      "phone": "4158749924",
      "lat": 37.742497,
      "lng": -122.426297,
      "price": 2,
      "reserve_url": "http://www.opentable.com/single.aspx?rid=152689",
      "mobile_reserve_url": "http://mobile.opentable.com/opentable/?restId=152689",
      "image_url": "https://www.opentable.com/img/restimages/152689.jpg"
    },
    {
      "id": 140959,
      "name": "The Sausage Factory",
      "address": "517 Castro Street",
      "city": "San Francisco",
      "state": "CA",
      "area": "San Francisco Bay Area",
      "postal_code": "94114",
      "country": "US",
      "phone": "4156261250",
      "lat": 37.760513,
      "lng": -122.43474,
      "price": 2,
      "reserve_url": "http://www.opentable.com/single.aspx?rid=140959",
      "mobile_reserve_url": "http://mobile.opentable.com/opentable/?restId=140959",
      "image_url": "https://www.opentable.com/img/restimages/140959.jpg"
    },
    {
      "id": 5823,
      "name": "Capannina",
      "address": "1809 Union St",
      "city": "San Francisco",
      "state": "CA",
      "area": "San Francisco Bay Area",
      "postal_code": "94123",
      "country": "US",
      "phone": "4154098001",
      "lat": 37.797924,
      "lng": -122.429248,
      "price": 2,
      "reserve_url": "http://www.opentable.com/single.aspx?rid=5823",
      "mobile_reserve_url": "http://mobile.opentable.com/opentable/?restId=5823",
      "image_url": "https://www.opentable.com/img/restimages/5823.jpg"
    },
    {
      "id": 148267,
      "name": "Belcampo",
      "address": "1998 Polk Street",
      "city": "San Francisco",
      "state": "CA",
      "area": "San Francisco Bay Area",
      "postal_code": "94109",
      "country": "US",
      "phone": "4156605573x",
      "lat": 37.794865,
      "lng": -122.421381,
      "price": 2,
      "reserve_url": "http://www.opentable.com/single.aspx?rid=148267",
      "mobile_reserve_url": "http://mobile.opentable.com/opentable/?restId=148267",
      "image_url": "https://www.opentable.com/img/restimages/148267.jpg"
    },
    {
      "id": 21049,
      "name": "Serpentine",
      "address": "2495 Third Street",
      "city": "San Francisco",
      "state": "CA",
      "area": "San Francisco Bay Area",
      "postal_code": "94107",
      "country": "US",
      "phone": "4152522000x",
      "lat": 37.756734,
      "lng": -122.388124,
      "price": 2,
      "reserve_url": "http://www.opentable.com/single.aspx?rid=21049",
      "mobile_reserve_url": "http://mobile.opentable.com/opentable/?restId=21049",
      "image_url": "https://www.opentable.com/img/restimages/21049.jpg"
    },
    {
      "id": 149530,
      "name": "Yank Sing - Rincon Center",
      "address": "101 Spear Street",
      "city": "San Francisco",
      "state": "CA",
      "area": "San Francisco Bay Area",
      "postal_code": "94105",
      "country": "US",
      "phone": "4157811111x",
      "lat": 37.79255,
      "lng": -122.39337,
      "price": 2,
      "reserve_url": "http://www.opentable.com/single.aspx?rid=149530",
      "mobile_reserve_url": "http://mobile.opentable.com/opentable/?restId=149530",
      "image_url": "https://www.opentable.com/img/restimages/149530.jpg"
    },
    {
      "id": 3475,
      "name": "Brandy Ho's Hunan Food",
      "address": "217 Columbus Ave.",
      "city": "San Francisco",
      "state": "CA",
      "area": "San Francisco Bay Area",
      "postal_code": "94133",
      "country": "US",
      "phone": "4157887527",
      "lat": 37.797236,
      "lng": -122.406126,
      "price": 2,
      "reserve_url": "http://www.opentable.com/single.aspx?rid=3475",
      "mobile_reserve_url": "http://mobile.opentable.com/opentable/?restId=3475",
      "image_url": "https://www.opentable.com/img/restimages/3475.jpg"
    },
    {
      "id": 4057,
      "name": "Mangia Tutti",
      "address": "635 Clay St.",
      "city": "San Francisco",
      "state": "CA",
      "area": "San Francisco Bay Area",
      "postal_code": "94111",
      "country": "US",
      "phone": "4157882088",
      "lat": 37.794437,
      "lng": -122.403751,
      "price": 2,
      "reserve_url": "http://www.opentable.com/single.aspx?rid=4057",
      "mobile_reserve_url": "http://mobile.opentable.com/opentable/?restId=4057",
      "image_url": "https://www.opentable.com/img/restimages/4057.jpg"
    },
    {
      "id": 4058,
      "name": "Sauce: Gough",
      "address": "131 Gough St",
      "city": "San Francisco",
      "state": "CA",
      "area": "San Francisco Bay Area",
      "postal_code": "94102",
      "country": "US",
      "phone": "4152521369",
      "lat": 37.774604,
      "lng": -122.422793,
      "price": 2,
      "reserve_url": "http://www.opentable.com/single.aspx?rid=4058",
      "mobile_reserve_url": "http://mobile.opentable.com/opentable/?restId=4058",
      "image_url": "https://www.opentable.com/img/restimages/4058.jpg"
    },
    {
      "id": 40531,
      "name": "Players Sports Grill \u0026 Arcade",
      "address": "Pier 39",
      "city": "San Francisco",
      "state": "CA",
      "area": "San Francisco Bay Area",
      "postal_code": "94133",
      "country": "US",
      "phone": "4159816300x",
      "lat": 37.809357,
      "lng": -122.410092,
      "price": 2,
      "reserve_url": "http://www.opentable.com/single.aspx?rid=40531",
      "mobile_reserve_url": "http://mobile.opentable.com/opentable/?restId=40531",
      "image_url": "https://www.opentable.com/img/restimages/40531.jpg"
    },
    {
      "id": 1906,
      "name": "Foreign Cinema",
      "address": "2534 Mission St.",
      "city": "San Francisco",
      "state": "CA",
      "area": "San Francisco Bay Area",
      "postal_code": "94110",
      "country": "US",
      "phone": "4156487600",
      "lat": 37.756301,
      "lng": -122.418858,
      "price": 2,
      "reserve_url": "http://www.opentable.com/single.aspx?rid=1906",
      "mobile_reserve_url": "http://mobile.opentable.com/opentable/?restId=1906",
      "image_url": "https://www.opentable.com/img/restimages/1906.jpg"
    },
    {
      "id": 3411,
      "name": "Sutro's at the Cliff House",
      "address": "1090 Point Lobos Ave.",
      "city": "San Francisco",
      "state": "CA",
      "area": "San Francisco Bay Area",
      "postal_code": "94121",
      "country": "US",
      "phone": "4153863330",
      "lat": 37.776699,
      "lng": -122.511895,
      "price": 4,
      "reserve_url": "http://www.opentable.com/single.aspx?rid=3411",
      "mobile_reserve_url": "http://mobile.opentable.com/opentable/?restId=3411",
      "image_url": "https://www.opentable.com/img/restimages/3411.jpg"
    },
    {
      "id": 22888,
      "name": "Rocco's Cafe",
      "address": "1131 Folsom Street",
      "city": "San Francisco",
      "state": "CA",
      "area": "San Francisco Bay Area",
      "postal_code": "94103",
      "country": "US",
      "phone": "4155540522x",
      "lat": 37.775955,
      "lng": -122.408454,
      "price": 2,
      "reserve_url": "http://www.opentable.com/single.aspx?rid=22888",
      "mobile_reserve_url": "http://mobile.opentable.com/opentable/?restId=22888",
      "image_url": "https://www.opentable.com/img/restimages/22888.jpg"
    },
    {
      "id": 5087,
      "name": "Bob's Steak \u0026 Chop House - San Francisco",
      "address": "500 California Street",
      "city": "San Francisco",
      "state": "CA",
      "area": "San Francisco Bay Area",
      "postal_code": "94104",
      "country": "US",
      "phone": "4152733085",
      "lat": 37.793104,
      "lng": -122.403174,
      "price": 4,
      "reserve_url": "http://www.opentable.com/single.aspx?rid=5087",
      "mobile_reserve_url": "http://mobile.opentable.com/opentable/?restId=5087",
      "image_url": "https://www.opentable.com/img/restimages/5087.jpg"
    },
    {
      "id": 30,
      "name": "Campton Place",
      "address": "340 Stockton Street",
      "city": "San Francisco",
      "state": "CA",
      "area": "San Francisco Bay Area",
      "postal_code": "94108",
      "country": "US",
      "phone": "4159555555x",
      "lat": 37.789157,
      "lng": -122.406556,
      "price": 4,
      "reserve_url": "http://www.opentable.com/single.aspx?rid=30",
      "mobile_reserve_url": "http://mobile.opentable.com/opentable/?restId=30",
      "image_url": "https://www.opentable.com/img/restimages/30.jpg"
    },
    {
      "id": 95704,
      "name": "Hakkasan San Francisco",
      "address": "One Kearny Street",
      "city": "San Francisco",
      "state": "CA",
      "area": "San Francisco Bay Area",
      "postal_code": "94108",
      "country": "US",
      "phone": "4158298148x",
      "lat": 37.787821,
      "lng": -122.403558,
      "price": 4,
      "reserve_url": "http://www.opentable.com/single.aspx?rid=95704",
      "mobile_reserve_url": "http://mobile.opentable.com/opentable/?restId=95704",
      "image_url": "https://www.opentable.com/img/restimages/95704.jpg"
    },
    {
      "id": 25576,
      "name": "Bambino's Ristorante",
      "address": "945 Cole Street",
      "city": "San Francisco",
      "state": "CA",
      "area": "San Francisco Bay Area",
      "postal_code": "94117",
      "country": "US",
      "phone": "415-731-1343",
      "lat": 37.765156,
      "lng": -122.449828,
      "price": 2,
      "reserve_url": "http://www.opentable.com/single.aspx?rid=25576",
      "mobile_reserve_url": "http://mobile.opentable.com/opentable/?restId=25576",
      "image_url": "https://www.opentable.com/img/restimages/25576.jpg"
    },
    {
      "id": 3899,
      "name": "Espetus Churrascaria - San Francisco",
      "address": "1686 Market St",
      "city": "San Francisco",
      "state": "CA",
      "area": "San Francisco Bay Area",
      "postal_code": "94102",
      "country": "US",
      "phone": "4155528792x",
      "lat": 37.773158,
      "lng": -122.421895,
      "price": 4,
      "reserve_url": "http://www.opentable.com/single.aspx?rid=3899",
      "mobile_reserve_url": "http://mobile.opentable.com/opentable/?restId=3899",
      "image_url": "https://www.opentable.com/img/restimages/3899.jpg"
    },
    {
      "id": 149527,
      "name": "Yank Sing - Stevenson Street",
      "address": "49 Stevenson Street",
      "city": "San Francisco",
      "state": "AL",
      "area": "San Francisco Bay Area",
      "postal_code": "94105",
      "country": "US",
      "phone": "4155414949",
      "lat": 37.79828,
      "lng": -122.401549,
      "price": 2,
      "reserve_url": "http://www.opentable.com/single.aspx?rid=149527",
      "mobile_reserve_url": "http://mobile.opentable.com/opentable/?restId=149527",
      "image_url": "https://www.opentable.com/img/restimages/149527.jpg"
    },
    {
      "id": 20011,
      "name": "Panta Rei",
      "address": "431 Columbus Avenue",
      "city": "San Francisco",
      "state": "CA",
      "area": "San Francisco Bay Area",
      "postal_code": "94133",
      "country": "US",
      "phone": "4155910900",
      "lat": 37.799148,
      "lng": -122.408576,
      "price": 2,
      "reserve_url": "http://www.opentable.com/single.aspx?rid=20011",
      "mobile_reserve_url": "http://mobile.opentable.com/opentable/?restId=20011",
      "image_url": "https://www.opentable.com/img/restimages/20011.jpg"
    },
    {
      "id": 1342,
      "name": "Bella Trattoria Italiana",
      "address": "3854 Geary Blvd.",
      "city": "San Francisco",
      "state": "CA",
      "area": "San Francisco Bay Area",
      "postal_code": "94118",
      "country": "US",
      "phone": "4152210305",
      "lat": 37.781337,
      "lng": -122.460529,
      "price": 2,
      "reserve_url": "http://www.opentable.com/single.aspx?rid=1342",
      "mobile_reserve_url": "http://mobile.opentable.com/opentable/?restId=1342",
      "image_url": "https://www.opentable.com/img/restimages/1342.jpg"
    },
    {
      "id": 76462,
      "name": "Limon Rotisserie â€“ Bay View",
      "address": "5800 3rd Street #1004",
      "city": "San Francisco",
      "state": "CA",
      "area": "San Francisco Bay Area",
      "postal_code": "94124",
      "country": "US",
      "phone": "4159265665",
      "lat": 37.725532,
      "lng": -122.39424,
      "price": 2,
      "reserve_url": "http://www.opentable.com/single.aspx?rid=76462",
      "mobile_reserve_url": "http://mobile.opentable.com/opentable/?restId=76462",
      "image_url": "https://www.opentable.com/img/restimages/76462.jpg"
    },
    {
      "id": 83236,
      "name": "Bouche",
      "address": "603 Bush Street",
      "city": "San Francisco",
      "state": "CA",
      "area": "San Francisco Bay Area",
      "postal_code": "94108",
      "country": "US",
      "phone": "4159560396x",
      "lat": 37.790218,
      "lng": -122.407366,
      "price": 2,
      "reserve_url": "http://www.opentable.com/single.aspx?rid=83236",
      "mobile_reserve_url": "http://mobile.opentable.com/opentable/?restId=83236",
      "image_url": "https://www.opentable.com/img/restimages/83236.jpg"
    },
    {
      "id": 83107,
      "name": "Star India",
      "address": "3721 Geary Blvd",
      "city": "San Francisco",
      "state": "CA",
      "area": "San Francisco Bay Area",
      "postal_code": "94118",
      "country": "US",
      "phone": "4156684466",
      "lat": 37.78109,
      "lng": -122.459386,
      "price": 2,
      "reserve_url": "http://www.opentable.com/single.aspx?rid=83107",
      "mobile_reserve_url": "http://mobile.opentable.com/opentable/?restId=83107",
      "image_url": "https://www.opentable.com/img/restimages/83107.jpg"
    },
    {
      "id": 7285,
      "name": "Capurro's",
      "address": "498 Jefferson St.",
      "city": "San Francisco",
      "state": "CA",
      "area": "San Francisco Bay Area",
      "postal_code": "94109",
      "country": "US",
      "phone": "4157719371x104",
      "lat": 37.807614,
      "lng": -122.420729,
      "price": 2,
      "reserve_url": "http://www.opentable.com/single.aspx?rid=7285",
      "mobile_reserve_url": "http://mobile.opentable.com/opentable/?restId=7285",
      "image_url": "https://www.opentable.com/img/restimages/7285.jpg"
    },
    {
      "id": 2,
      "name": "Thirsty Bear",
      "address": "661 Howard St.",
      "city": "San Francisco",
      "state": "CA",
      "area": "San Francisco Bay Area",
      "postal_code": "94105",
      "country": "US",
      "phone": "4159740905",
      "lat": 37.78565,
      "lng": -122.399734,
      "price": 2,
      "reserve_url": "http://www.opentable.com/single.aspx?rid=2",
      "mobile_reserve_url": "http://mobile.opentable.com/opentable/?restId=2",
      "image_url": "https://www.opentable.com/img/restimages/2.jpg"
    },
    {
      "id": 41,
      "name": "Farallon",
      "address": "450 Post Street",
      "city": "San Francisco",
      "state": "CA",
      "area": "San Francisco Bay Area",
      "postal_code": "94102",
      "country": "US",
      "phone": "4159566969x",
      "lat": 37.788457,
      "lng": -122.409368,
      "price": 4,
      "reserve_url": "http://www.opentable.com/single.aspx?rid=41",
      "mobile_reserve_url": "http://mobile.opentable.com/opentable/?restId=41",
      "image_url": "https://www.opentable.com/img/restimages/41.jpg"
    },
    {
      "id": 48388,
      "name": "YamaSho",
      "address": "1161 Post Street",
      "city": "San Francisco",
      "state": "CA",
      "area": "San Francisco Bay Area",
      "postal_code": "94109",
      "country": "US",
      "phone": "4153462222",
      "lat": 37.786657,
      "lng": -122.420912,
      "price": 2,
      "reserve_url": "http://www.opentable.com/single.aspx?rid=48388",
      "mobile_reserve_url": "http://mobile.opentable.com/opentable/?restId=48388",
      "image_url": "https://www.opentable.com/img/restimages/48388.jpg"
    },
    {
      "id": 79216,
      "name": "Castagna - San Francisco",
      "address": "2015 Chestnut Street",
      "city": "San Francisco",
      "state": "CA",
      "area": "San Francisco Bay Area",
      "postal_code": "94123",
      "country": "US",
      "phone": "4154404290x",
      "lat": 37.800693,
      "lng": -122.43661,
      "price": 2,
      "reserve_url": "http://www.opentable.com/single.aspx?rid=79216",
      "mobile_reserve_url": "http://mobile.opentable.com/opentable/?restId=79216",
      "image_url": "https://www.opentable.com/img/restimages/79216.jpg"
    },
    {
      "id": 24886,
      "name": "Amber India",
      "address": "25 Yerba Buena Lane",
      "city": "San Francisco",
      "state": "CA",
      "area": "San Francisco Bay Area",
      "postal_code": "94103",
      "country": "US",
      "phone": "4157770500",
      "lat": 37.78553,
      "lng": -122.404026,
      "price": 2,
      "reserve_url": "http://www.opentable.com/single.aspx?rid=24886",
      "mobile_reserve_url": "http://mobile.opentable.com/opentable/?restId=24886",
      "image_url": "https://www.opentable.com/img/restimages/24886.jpg"
    },
    {
      "id": 3598,
      "name": "B44",
      "address": "44 Belden Place",
      "city": "San Francisco",
      "state": "CA",
      "area": "San Francisco Bay Area",
      "postal_code": "94104",
      "country": "US",
      "phone": "4159866287",
      "lat": 37.791332,
      "lng": -122.40378,
      "price": 2,
      "reserve_url": "http://www.opentable.com/single.aspx?rid=3598",
      "mobile_reserve_url": "http://mobile.opentable.com/opentable/?restId=3598",
      "image_url": "https://www.opentable.com/img/restimages/3598.jpg"
    },
    {
      "id": 149515,
      "name": "Causwells",
      "address": "2346 Chestnut Street",
      "city": "San Francisco",
      "state": "CA",
      "area": "San Francisco Bay Area",
      "postal_code": "94123",
      "country": "US",
      "phone": "4154476081",
      "lat": 37.8001,
      "lng": -122.442008,
      "price": 2,
      "reserve_url": "http://www.opentable.com/single.aspx?rid=149515",
      "mobile_reserve_url": "http://mobile.opentable.com/opentable/?restId=149515",
      "image_url": "https://www.opentable.com/img/restimages/149515.jpg"
    },
    {
      "id": 149029,
      "name": "Caffe Sport - San Francisco",
      "address": "574 Green St",
      "city": "San Francisco",
      "state": "CA",
      "area": "San Francisco Bay Area",
      "postal_code": "94133",
      "country": "US",
      "phone": "4159811251",
      "lat": 37.799676,
      "lng": -122.408707,
      "price": 2,
      "reserve_url": "http://www.opentable.com/single.aspx?rid=149029",
      "mobile_reserve_url": "http://mobile.opentable.com/opentable/?restId=149029",
      "image_url": "https://www.opentable.com/img/restimages/149029.jpg"
    },
    {
      "id": 23899,
      "name": "Opaque - Dining In The Dark",
      "address": "689 McAllister Street",
      "city": "San Francisco",
      "state": "CA",
      "area": "San Francisco Bay Area",
      "postal_code": "94102",
      "country": "US",
      "phone": "8007101270",
      "lat": 37.779737,
      "lng": -122.423327,
      "price": 4,
      "reserve_url": "http://www.opentable.com/single.aspx?rid=23899",
      "mobile_reserve_url": "http://mobile.opentable.com/opentable/?restId=23899",
      "image_url": "https://www.opentable.com/img/restimages/23899.jpg"
    },
    {
      "id": 241,
      "name": "Dirty Habit",
      "address": "12 Fourth St.",
      "city": "San Francisco",
      "state": "CA",
      "area": "San Francisco Bay Area",
      "postal_code": "94103",
      "country": "US",
      "phone": "4153481555x",
      "lat": 37.78562,
      "lng": -122.405678,
      "price": 2,
      "reserve_url": "http://www.opentable.com/single.aspx?rid=241",
      "mobile_reserve_url": "http://mobile.opentable.com/opentable/?restId=241",
      "image_url": "https://www.opentable.com/img/restimages/241.jpg"
    },
    {
      "id": 148204,
      "name": "Minas Brazilian Restaurant",
      "address": "41 Franklin Street",
      "city": "San Francisco",
      "state": "CA",
      "area": "San Francisco Bay Area",
      "postal_code": "94102",
      "country": "US",
      "phone": "4156268727x",
      "lat": 37.774823,
      "lng": -122.421067,
      "price": 2,
      "reserve_url": "http://www.opentable.com/single.aspx?rid=148204",
      "mobile_reserve_url": "http://mobile.opentable.com/opentable/?restId=148204",
      "image_url": "https://www.opentable.com/img/restimages/148204.jpg"
    },
    {
      "id": 5546,
      "name": "Ame",
      "address": "689 Mission Street",
      "city": "San Francisco",
      "state": "CA",
      "area": "San Francisco Bay Area",
      "postal_code": "94105",
      "country": "US",
      "phone": "4152844040x",
      "lat": 37.786449,
      "lng": -122.401818,
      "price": 4,
      "reserve_url": "http://www.opentable.com/single.aspx?rid=5546",
      "mobile_reserve_url": "http://mobile.opentable.com/opentable/?restId=5546",
      "image_url": "https://www.opentable.com/img/restimages/5546.jpg"
    },
    {
      "id": 3174,
      "name": "Aziza",
      "address": "5800 Geary Blvd.",
      "city": "San Francisco",
      "state": "CA",
      "area": "San Francisco Bay Area",
      "postal_code": "94121",
      "country": "US",
      "phone": "4157522222",
      "lat": 37.780541,
      "lng": -122.481714,
      "price": 3,
      "reserve_url": "http://www.opentable.com/single.aspx?rid=3174",
      "mobile_reserve_url": "http://mobile.opentable.com/opentable/?restId=3174",
      "image_url": "https://www.opentable.com/img/restimages/3174.jpg"
    },
    {
      "id": 4959,
      "name": "Tres - SF (fka Tres Agaves)",
      "address": "130 Townsend St",
      "city": "San Francisco",
      "state": "CA",
      "area": "San Francisco Bay Area",
      "postal_code": "94107",
      "country": "US",
      "phone": "4152270500",
      "lat": 37.780423,
      "lng": -122.391646,
      "price": 2,
      "reserve_url": "http://www.opentable.com/single.aspx?rid=4959",
      "mobile_reserve_url": "http://mobile.opentable.com/opentable/?restId=4959",
      "image_url": "https://www.opentable.com/img/restimages/4959.jpg"
    },
    {
      "id": 167,
      "name": "Cafe Tiramisu",
      "address": "28 Belden Place",
      "city": "San Francisco",
      "state": "CA",
      "area": "San Francisco Bay Area",
      "postal_code": "94104",
      "country": "US",
      "phone": "4154217044x",
      "lat": 37.791205,
      "lng": -122.40361,
      "price": 2,
      "reserve_url": "http://www.opentable.com/single.aspx?rid=167",
      "mobile_reserve_url": "http://mobile.opentable.com/opentable/?restId=167",
      "image_url": "https://www.opentable.com/img/restimages/167.jpg"
    }
  ]
}
